reference_id,frame_index,timestamp_seconds,image_path,telemetry_block_index,drone_lat,drone_lon,rel_alt_m,abs_alt_m,manual_height_above_takeoff_m,manual_camera_angle_deg,local_x_m,local_y_m,feature_type,feature_path,feature_status
4cf8d389-690a-422e-9621-e1b8f17f3615,0,0.0,frames/frame_000000.jpg,1,32.102624,35.209724,19.6,729.642,120.0,45.0,0.0,0.0,orb,features/frame_000000_orb.npz,extracted
4cf8d389-690a-422e-9621-e1b8f17f3615,30,1.0,frames/frame_000030.jpg,30,32.102624,35.209724,19.6,729.642,120.0,45.0,0.0,0.0,orb,features/frame_000030_orb.npz,extracted
4cf8d389-690a-422e-9621-e1b8f17f3615,60,2.0,frames/frame_000060.jpg,60,32.102625,35.209724,19.6,729.642,120.0,45.0,0.0,0.11119504932695422,orb,features/frame_000060_orb.npz,extracted
4cf8d389-690a-422e-9621-e1b8f17f3615,90,3.0,frames/frame_000090.jpg,90,32.102625,35.209724,20.6,730.642,120.0,45.0,0.0,0.11119504932695422,orb,features/frame_000090_orb.npz,extracted
4cf8d389-690a-422e-9621-e1b8f17f3615,120,4.0,frames/frame_000120.jpg,120,32.102625,35.209723,24.6,734.642,120.0,45.0,-0.0941930576153216,0.11119504932695422,orb,features/frame_000120_orb.npz,extracted
4cf8d389-690a-422e-9621-e1b8f17f3615,150,5.0,frames/frame_000150.jpg,150,32.102625,35.209723,29.8,739.842,120.0,45.0,-0.0941930576153216,0.11119504932695422,orb,features/frame_000150_orb.npz,extracted
4cf8d389-690a-422e-9621-e1b8f17f3615,180,6.0,frames/frame_000180.jpg,180,32.102625,35.209722,35.9,745.942,120.0,45.0,-0.18838611456136123,0.11119504932695422,orb,features/frame_000180_orb.npz,extracted
4cf8d389-690a-422e-9621-e1b8f17f3615,210,7.0,frames/frame_000210.jpg,210,32.102625,35.209723,41.9,751.942,120.0,45.0,-0.0941930576153216,0.11119504932695422,orb,features/frame_000210_orb.npz,extracted
4cf8d389-690a-422e-9621-e1b8f17f3615,240,8.0,frames/frame_000240.jpg,240,32.102626,35.209724,48.0,758.042,120.0,45.0,0.0,0.22239009786382005,orb,features/frame_000240_orb.npz,extracted
4cf8d389-690a-422e-9621-e1b8f17f3615,270,9.0,frames/frame_000270.jpg,270,32.102626,35.209726,54.3,764.342,120.0,45.0,0.18838611456136123,0.22239009786382005,orb,features/frame_000270_orb.npz,extracted
4cf8d389-690a-422e-9621-e1b8f17f3615,300,10.0,frames/frame_000300.jpg,300,32.102627,35.209727,60.5,770.542,120.0,45.0,0.2825791715074009,0.33358514640068593,orb,features/frame_000300_orb.npz,extracted
4cf8d389-690a-422e-9621-e1b8f17f3615,330,11.0,frames/frame_000330.jpg,330,32.102628,35.209727,66.6,776.642,120.0,45.0,0.2825791715074009,0.4447801957276401,orb,features/frame_000330_orb.npz,extracted
4cf8d389-690a-422e-9621-e1b8f17f3615,360,12.0,frames/frame_000360.jpg,360,32.102629,35.209726,72.7,782.742,120.0,45.0,0.18838611456136123,0.5559752442645061,orb,features/frame_000360_orb.npz,extracted
4cf8d389-690a-422e-9621-e1b8f17f3615,390,13.0,frames/frame_000390.jpg,390,32.102629,35.209725,78.7,788.742,120.0,45.0,0.09419305694603966,0.5559752442645061,orb,features/frame_000390_orb.npz,extracted
4cf8d389-690a-422e-9621-e1b8f17f3615,420,14.0,frames/frame_000420.jpg,420,32.102628,35.209724,84.8,794.842,120.0,45.0,0.0,0.4447801957276401,orb,features/frame_000420_orb.npz,extracted
4cf8d389-690a-422e-9621-e1b8f17f3615,450,15.0,frames/frame_000450.jpg,450,32.102628,35.209724,88.7,798.742,120.0,45.0,0.0,0.4447801957276401,orb,features/frame_000450_orb.npz,extracted
4cf8d389-690a-422e-9621-e1b8f17f3615,480,16.0,frames/frame_000480.jpg,480,32.102628,35.209725,89.8,799.842,120.0,45.0,0.09419305694603966,0.4447801957276401,orb,features/frame_000480_orb.npz,extracted
4cf8d389-690a-422e-9621-e1b8f17f3615,509,17.0,frames/frame_000509.jpg,510,32.102631,35.209723,94.3,804.342,120.0,45.0,-0.0941930576153216,0.7783653421283261,orb,features/frame_000509_orb.npz,extracted
4cf8d389-690a-422e-9621-e1b8f17f3615,539,18.0,frames/frame_000539.jpg,540,32.102632,35.209722,100.5,810.542,120.0,45.0,-0.18838611456136123,0.889560390665192,orb,features/frame_000539_orb.npz,extracted
4cf8d389-690a-422e-9621-e1b8f17f3615,569,19.0,frames/frame_000569.jpg,570,32.102631,35.209721,105.9,815.942,120.0,45.0,-0.2825791715074009,0.7783653421283261,orb,features/frame_000569_orb.npz,extracted
4cf8d389-690a-422e-9621-e1b8f17f3615,599,20.0,frames/frame_000599.jpg,600,32.102629,35.209721,109.8,819.842,120.0,45.0,-0.2825791715074009,0.5559752442645061,orb,features/frame_000599_orb.npz,extracted
4cf8d389-690a-422e-9621-e1b8f17f3615,629,21.0,frames/frame_000629.jpg,630,32.102628,35.209721,110.4,820.442,120.0,45.0,-0.2825791715074009,0.4447801957276401,orb,features/frame_000629_orb.npz,extracted
4cf8d389-690a-422e-9621-e1b8f17f3615,659,22.0,frames/frame_000659.jpg,660,32.102631,35.209722,113.7,823.742,120.0,45.0,-0.18838611456136123,0.7783653421283261,orb,features/frame_000659_orb.npz,extracted
4cf8d389-690a-422e-9621-e1b8f17f3615,689,23.0,frames/frame_000689.jpg,690,32.102632,35.209723,115.5,825.542,120.0,45.0,-0.0941930576153216,0.889560390665192,orb,features/frame_000689_orb.npz,extracted
4cf8d389-690a-422e-9621-e1b8f17f3615,719,24.0,frames/frame_000719.jpg,720,32.102633,35.209724,116.8,826.842,120.0,45.0,0.0,1.0007554392020577,orb,features/frame_000719_orb.npz,extracted
4cf8d389-690a-422e-9621-e1b8f17f3615,749,25.0,frames/frame_000749.jpg,750,32.102634,35.209726,117.8,827.842,120.0,45.0,0.18838611456136123,1.1119504885290121,orb,features/frame_000749_orb.npz,extracted
4cf8d389-690a-422e-9621-e1b8f17f3615,779,26.0,frames/frame_000779.jpg,780,32.102635,35.209727,117.8,827.842,120.0,45.0,0.2825791715074009,1.223145537065878,orb,features/frame_000779_orb.npz,extracted
4cf8d389-690a-422e-9621-e1b8f17f3615,809,27.0,frames/frame_000809.jpg,810,32.102635,35.209728,118.3,828.342,120.0,45.0,0.37677222845344055,1.223145537065878,orb,features/frame_000809_orb.npz,extracted
4cf8d389-690a-422e-9621-e1b8f17f3615,839,28.0,frames/frame_000839.jpg,840,32.102635,35.209729,118.9,828.942,120.0,45.0,0.4709652860687622,1.223145537065878,orb,features/frame_000839_orb.npz,extracted
4cf8d389-690a-422e-9621-e1b8f17f3615,869,29.0,frames/frame_000869.jpg,870,32.102635,35.209731,119.3,829.342,120.0,45.0,0.6593513999608416,1.223145537065878,orb,features/frame_000869_orb.npz,extracted
4cf8d389-690a-422e-9621-e1b8f17f3615,899,30.0,frames/frame_000899.jpg,900,32.102634,35.209731,119.4,829.442,120.0,45.0,0.6593513999608416,1.1119504885290121,orb,features/frame_000899_orb.npz,extracted
4cf8d389-690a-422e-9621-e1b8f17f3615,929,31.0,frames/frame_000929.jpg,930,32.102635,35.209731,119.8,829.842,120.0,45.0,0.6593513999608416,1.223145537065878,orb,features/frame_000929_orb.npz,extracted
4cf8d389-690a-422e-9621-e1b8f17f3615,959,32.0,frames/frame_000959.jpg,960,32.102635,35.209731,119.8,829.842,120.0,45.0,0.6593513999608416,1.223145537065878,orb,features/frame_000959_orb.npz,extracted
4cf8d389-690a-422e-9621-e1b8f17f3615,989,33.0,frames/frame_000989.jpg,990,32.102637,35.209731,119.8,829.842,120.0,45.0,0.6593513999608416,1.445535634929698,orb,features/frame_000989_orb.npz,extracted
4cf8d389-690a-422e-9621-e1b8f17f3615,1019,34.0,frames/frame_001019.jpg,1020,32.102636,35.209732,119.8,829.842,120.0,45.0,0.7535444575761632,1.3343405856027437,orb,features/frame_001019_orb.npz,extracted
4cf8d389-690a-422e-9621-e1b8f17f3615,1049,35.0,frames/frame_001049.jpg,1049,32.102633,35.209732,119.8,829.842,120.0,45.0,0.7535444575761632,1.0007554392020577,orb,features/frame_001049_orb.npz,extracted
4cf8d389-690a-422e-9621-e1b8f17f3615,1079,36.0,frames/frame_001079.jpg,1079,32.102631,35.209731,119.8,829.842,120.0,45.0,0.6593513999608416,0.7783653421283261,orb,features/frame_001079_orb.npz,extracted
4cf8d389-690a-422e-9621-e1b8f17f3615,1109,37.0,frames/frame_001109.jpg,1109,32.102636,35.209705,119.8,829.842,120.0,45.0,-1.7896680866597272,1.3343405856027437,orb,features/frame_001109_orb.npz,extracted
4cf8d389-690a-422e-9621-e1b8f17f3615,1139,38.0,frames/frame_001139.jpg,1139,32.102647,35.20965,119.8,829.842,120.0,45.0,-6.970286231408265,2.557486122668622,orb,features/frame_001139_orb.npz,extracted
4cf8d389-690a-422e-9621-e1b8f17f3615,1169,39.0,frames/frame_001169.jpg,1169,32.102665,35.209574,119.8,829.842,120.0,45.0,-14.128958577377894,4.558997001862825,orb,features/frame_001169_orb.npz,extracted
4cf8d389-690a-422e-9621-e1b8f17f3615,1199,40.0,frames/frame_001199.jpg,1199,32.102685,35.209484,119.8,829.842,120.0,45.0,-22.606333723938484,6.7828979781307615,orb,features/frame_001199_orb.npz,extracted
4cf8d389-690a-422e-9621-e1b8f17f3615,1229,41.0,frames/frame_001229.jpg,1229,32.102708,35.209384,119.8,829.842,120.0,45.0,-32.0256394426366,9.340384100799382,orb,features/frame_001229_orb.npz,extracted
4cf8d389-690a-422e-9621-e1b8f17f3615,1259,42.0,frames/frame_001259.jpg,1259,32.102731,35.209278,119.8,829.842,120.0,45.0,-42.010103504349516,11.897870223468004,orb,features/frame_001259_orb.npz,extracted
4cf8d389-690a-422e-9621-e1b8f17f3615,1289,43.0,frames/frame_001289.jpg,1289,32.102755,35.20917,119.7,829.742,120.0,45.0,-52.182953679954515,14.56655139546358,orb,features/frame_001289_orb.npz,extracted
4cf8d389-690a-422e-9621-e1b8f17f3615,1319,44.0,frames/frame_001319.jpg,1319,32.102779,35.209063,119.8,829.842,120.0,45.0,-62.26161079861347,17.23523256666907,orb,features/frame_001319_orb.npz,extracted
4cf8d389-690a-422e-9621-e1b8f17f3615,1349,45.0,frames/frame_001349.jpg,1349,32.1028,35.208961,119.8,829.842,120.0,45.0,-71.86930263120367,19.57032859226396,orb,features/frame_001349_orb.npz,extracted
4cf8d389-690a-422e-9621-e1b8f17f3615,1379,46.0,frames/frame_001379.jpg,1379,32.102821,35.208863,119.8,829.842,120.0,45.0,-81.10022223534041,21.90542461706876,orb,features/frame_001379_orb.npz,extracted
4cf8d389-690a-422e-9621-e1b8f17f3615,1409,47.0,frames/frame_001409.jpg,1409,32.102845,35.20877,119.8,829.842,120.0,45.0,-89.86017655340842,24.574105789064337,orb,features/frame_001409_orb.npz,extracted
4cf8d389-690a-422e-9621-e1b8f17f3615,1439,48.0,frames/frame_001439.jpg,1439,32.102875,35.208683,119.8,829.842,120.0,45.0,-98.0549725284616,27.909957253071195,orb,features/frame_001439_orb.npz,extracted
4cf8d389-690a-422e-9621-e1b8f17f3615,1469,49.0,frames/frame_001469.jpg,1469,32.102909,35.208597,119.8,829.842,120.0,45.0,-106.15557544656875,31.69058891280569,orb,features/frame_001469_orb.npz,extracted
4cf8d389-690a-422e-9621-e1b8f17f3615,1499,50.0,frames/frame_001499.jpg,1499,32.102943,35.208509,119.8,829.842,120.0,45.0,-114.44456447856798,35.47122057333028,orb,features/frame_001499_orb.npz,extracted
4cf8d389-690a-422e-9621-e1b8f17f3615,1528,51.0,frames/frame_001528.jpg,1529,32.102977,35.20842,119.8,829.842,120.0,45.0,-122.82774656818252,39.25185223306478,orb,features/frame_001528_orb.npz,extracted
4cf8d389-690a-422e-9621-e1b8f17f3615,1558,52.0,frames/frame_001558.jpg,1559,32.103015,35.208322,119.7,829.742,120.0,45.0,-132.05866617165,43.47726408773683,orb,features/frame_001558_orb.npz,extracted
4cf8d389-690a-422e-9621-e1b8f17f3615,1588,53.0,frames/frame_001588.jpg,1589,32.103053,35.208219,119.8,829.842,120.0,45.0,-141.76055106185555,47.70267594319897,orb,features/frame_001588_orb.npz,extracted
4cf8d389-690a-422e-9621-e1b8f17f3615,1618,54.0,frames/frame_001618.jpg,1619,32.103094,35.208114,119.8,829.842,120.0,45.0,-151.65082206595312,52.26167294427171,orb,features/frame_001618_orb.npz,extracted
4cf8d389-690a-422e-9621-e1b8f17f3615,1648,55.0,frames/frame_001648.jpg,1649,32.103134,35.208008,119.8,829.842,120.0,45.0,-161.63528612766603,56.70947489680758,orb,features/frame_001648_orb.npz,extracted
4cf8d389-690a-422e-9621-e1b8f17f3615,1678,56.0,frames/frame_001678.jpg,1679,32.103177,35.207896,119.8,829.842,120.0,45.0,-172.18490853239376,61.49086199653422,orb,features/frame_001678_orb.npz,extracted
4cf8d389-690a-422e-9621-e1b8f17f3615,1708,57.0,frames/frame_001708.jpg,1709,32.10322,35.207784,119.8,829.842,120.0,45.0,-182.73453093712146,66.27224909547078,orb,features/frame_001708_orb.npz,extracted
4cf8d389-690a-422e-9621-e1b8f17f3615,1738,58.0,frames/frame_001738.jpg,1739,32.103263,35.207672,119.8,829.842,120.0,45.0,-193.28415334117994,71.05363619440735,orb,features/frame_001738_orb.npz,extracted
4cf8d389-690a-422e-9621-e1b8f17f3615,1768,59.0,frames/frame_001768.jpg,1769,32.103305,35.207561,119.8,829.842,120.0,45.0,-203.73958268896163,75.72382824480704,orb,features/frame_001768_orb.npz,extracted
4cf8d389-690a-422e-9621-e1b8f17f3615,1798,60.0,frames/frame_001798.jpg,1799,32.103347,35.20745,119.8,829.842,120.0,45.0,-214.19501203607396,80.39402029520673,orb,features/frame_001798_orb.npz,extracted
4cf8d389-690a-422e-9621-e1b8f17f3615,1828,61.0,frames/frame_001828.jpg,1829,32.103389,35.207338,119.8,829.842,120.0,45.0,-224.74463444080172,85.06421234560642,orb,features/frame_001828_orb.npz,extracted
4cf8d389-690a-422e-9621-e1b8f17f3615,1858,62.0,frames/frame_001858.jpg,1859,32.10343,35.207225,119.8,829.842,120.0,45.0,-235.38844990247546,89.62320934746924,orb,features/frame_001858_orb.npz,extracted
4cf8d389-690a-422e-9621-e1b8f17f3615,1888,63.0,frames/frame_001888.jpg,1889,32.10347,35.207111,119.8,829.842,120.0,45.0,-246.12645842176454,94.07101130000511,orb,features/frame_001888_orb.npz,extracted
4cf8d389-690a-422e-9621-e1b8f17f3615,1918,64.0,frames/frame_001918.jpg,1919,32.10351,35.206997,119.8,829.842,120.0,45.0,-256.8644669403843,98.51881325254098,orb,features/frame_001918_orb.npz,extracted
4cf8d389-690a-422e-9621-e1b8f17f3615,1948,65.0,frames/frame_001948.jpg,1949,32.103552,35.206878,119.8,829.842,120.0,45.0,-268.0734407450729,103.18900530294067,orb,features/frame_001948_orb.npz,extracted
4cf8d389-690a-422e-9621-e1b8f17f3615,1978,66.0,frames/frame_001978.jpg,1979,32.103594,35.20676,119.8,829.842,120.0,45.0,-279.18822149281544,107.85919735334036,orb,features/frame_001978_orb.npz,extracted
4cf8d389-690a-422e-9621-e1b8f17f3615,2008,67.0,frames/frame_002008.jpg,2009,32.103635,35.206643,119.8,829.842,120.0,45.0,-290.20880918361195,112.41819435441309,orb,features/frame_002008_orb.npz,extracted
4cf8d389-690a-422e-9621-e1b8f17f3615,2038,68.0,frames/frame_002038.jpg,2038,32.103678,35.206527,119.8,829.842,120.0,45.0,-301.1352038167931,117.19958145413975,orb,features/frame_002038_orb.npz,extracted
4cf8d389-690a-422e-9621-e1b8f17f3615,2068,69.0,frames/frame_002068.jpg,2068,32.103719,35.20641,119.8,829.842,120.0,45.0,-312.1557915075895,121.75857845521249,orb,features/frame_002068_orb.npz,extracted
4cf8d389-690a-422e-9621-e1b8f17f3615,2098,70.0,frames/frame_002098.jpg,2098,32.103762,35.206292,119.8,829.842,120.0,45.0,-323.27057225533207,126.53996555493914,orb,features/frame_002098_orb.npz,extracted
4cf8d389-690a-422e-9621-e1b8f17f3615,2128,71.0,frames/frame_002128.jpg,2128,32.103805,35.206177,119.8,829.842,120.0,45.0,-334.10277383156716,131.3213526538757,orb,features/frame_002128_orb.npz,extracted
4cf8d389-690a-422e-9621-e1b8f17f3615,2158,72.0,frames/frame_002158.jpg,2158,32.103851,35.206062,119.8,829.842,120.0,45.0,-344.93497540713304,136.43632489921293,orb,features/frame_002158_orb.npz,extracted
4cf8d389-690a-422e-9621-e1b8f17f3615,2188,73.0,frames/frame_002188.jpg,2188,32.103905,35.205958,119.8,829.842,120.0,45.0,-354.7310533542846,142.44085753521537,orb,features/frame_002188_orb.npz,extracted
4cf8d389-690a-422e-9621-e1b8f17f3615,2218,74.0,frames/frame_002218.jpg,2218,32.103969,35.205875,119.8,829.842,120.0,45.0,-362.54907710088435,149.5573406597468,orb,features/frame_002218_orb.npz,extracted
4cf8d389-690a-422e-9621-e1b8f17f3615,2248,75.0,frames/frame_002248.jpg,2248,32.104039,35.205805,119.8,829.842,120.0,45.0,-369.14259110383915,157.34099407707964,orb,features/frame_002248_orb.npz,extracted
4cf8d389-690a-422e-9621-e1b8f17f3615,2278,76.0,frames/frame_002278.jpg,2278,32.104112,35.205733,119.8,829.842,120.0,45.0,-375.9244912206861,165.45823264081312,orb,features/frame_002278_orb.npz,extracted
4cf8d389-690a-422e-9621-e1b8f17f3615,2308,77.0,frames/frame_002308.jpg,2308,32.104189,35.205657,119.8,829.842,120.0,45.0,-383.08316356665574,174.02025139948418,orb,features/frame_002308_orb.npz,extracted
4cf8d389-690a-422e-9621-e1b8f17f3615,2338,78.0,frames/frame_002338.jpg,2338,32.104268,35.205579,119.8,829.842,120.0,45.0,-390.4302220271867,182.80466025601908,orb,features/frame_002338_orb.npz,extracted
4cf8d389-690a-422e-9621-e1b8f17f3615,2368,79.0,frames/frame_002368.jpg,2368,32.10434,35.205496,119.9,829.942,120.0,45.0,-398.2482457737865,190.8107037712157,orb,features/frame_002368_orb.npz,extracted
4cf8d389-690a-422e-9621-e1b8f17f3615,2398,80.0,frames/frame_002398.jpg,2398,32.1044,35.205408,119.8,829.842,120.0,45.0,-406.5372348057857,197.4824067000195,orb,features/frame_002398_orb.npz,extracted
4cf8d389-690a-422e-9621-e1b8f17f3615,2428,81.0,frames/frame_002428.jpg,2428,32.104461,35.205318,119.9,829.942,120.0,45.0,-415.0146099523463,204.26530467815027,orb,features/frame_002428_orb.npz,extracted
4cf8d389-690a-422e-9621-e1b8f17f3615,2458,82.0,frames/frame_002458.jpg,2458,32.104496,35.205265,119.9,829.942,120.0,45.0,-420.0068419832027,208.15713138642164,orb,features/frame_002458_orb.npz,extracted
4cf8d389-690a-422e-9621-e1b8f17f3615,2488,83.0,frames/frame_002488.jpg,2488,32.104504,35.205253,119.8,829.842,120.0,45.0,-421.13715866923235,209.04669177708683,orb,features/frame_002488_orb.npz,extracted
4cf8d389-690a-422e-9621-e1b8f17f3615,2517,84.0,frames/frame_002517.jpg,2518,32.104505,35.205251,119.8,829.842,120.0,45.0,-421.3255447837937,209.15788682641377,orb,features/frame_002517_orb.npz,extracted
4cf8d389-690a-422e-9621-e1b8f17f3615,2547,85.0,frames/frame_002547.jpg,2548,32.104503,35.205253,119.8,829.842,120.0,45.0,-421.13715866923235,208.93549672854996,orb,features/frame_002547_orb.npz,extracted
4cf8d389-690a-422e-9621-e1b8f17f3615,2577,86.0,frames/frame_002577.jpg,2578,32.104501,35.205255,119.8,829.842,120.0,45.0,-420.948772554671,208.71310663068613,orb,features/frame_002577_orb.npz,extracted
4cf8d389-690a-422e-9621-e1b8f17f3615,2607,87.0,frames/frame_002607.jpg,2608,32.1045,35.205257,119.8,829.842,120.0,45.0,-420.7603864401096,208.60191158214928,orb,features/frame_002607_orb.npz,extracted
4cf8d389-690a-422e-9621-e1b8f17f3615,2637,88.0,frames/frame_002637.jpg,2638,32.104499,35.205258,119.8,829.842,120.0,45.0,-420.6661933831636,208.49071653282232,orb,features/frame_002637_orb.npz,extracted
4cf8d389-690a-422e-9621-e1b8f17f3615,2667,89.0,frames/frame_002667.jpg,2668,32.104499,35.205259,119.8,829.842,120.0,45.0,-420.5720003262175,208.49071653282232,orb,features/frame_002667_orb.npz,extracted
4cf8d389-690a-422e-9621-e1b8f17f3615,2697,90.0,frames/frame_002697.jpg,2698,32.104499,35.205259,119.8,829.842,120.0,45.0,-420.5720003262175,208.49071653282232,orb,features/frame_002697_orb.npz,extracted
4cf8d389-690a-422e-9621-e1b8f17f3615,2727,91.0,frames/frame_002727.jpg,2728,32.1045,35.205258,119.8,829.842,120.0,45.0,-420.6661933831636,208.60191158214928,orb,features/frame_002727_orb.npz,extracted
4cf8d389-690a-422e-9621-e1b8f17f3615,2757,92.0,frames/frame_002757.jpg,2758,32.1045,35.205258,119.8,829.842,120.0,45.0,-420.6661933831636,208.60191158214928,orb,features/frame_002757_orb.npz,extracted
4cf8d389-690a-422e-9621-e1b8f17f3615,2787,93.0,frames/frame_002787.jpg,2788,32.1045,35.205258,119.8,829.842,120.0,45.0,-420.6661933831636,208.60191158214928,orb,features/frame_002787_orb.npz,extracted
4cf8d389-690a-422e-9621-e1b8f17f3615,2817,94.0,frames/frame_002817.jpg,2818,32.1045,35.205258,119.8,829.842,120.0,45.0,-420.6661933831636,208.60191158214928,orb,features/frame_002817_orb.npz,extracted
4cf8d389-690a-422e-9621-e1b8f17f3615,2847,95.0,frames/frame_002847.jpg,2848,32.1045,35.205258,119.8,829.842,120.0,45.0,-420.6661933831636,208.60191158214928,orb,features/frame_002847_orb.npz,extracted
4cf8d389-690a-422e-9621-e1b8f17f3615,2877,96.0,frames/frame_002877.jpg,2878,32.1045,35.205257,119.8,829.842,120.0,45.0,-420.7603864401096,208.60191158214928,orb,features/frame_002877_orb.npz,extracted
4cf8d389-690a-422e-9621-e1b8f17f3615,2907,97.0,frames/frame_002907.jpg,2908,32.1045,35.205257,119.8,829.842,120.0,45.0,-420.7603864401096,208.60191158214928,orb,features/frame_002907_orb.npz,extracted
4cf8d389-690a-422e-9621-e1b8f17f3615,2937,98.0,frames/frame_002937.jpg,2938,32.104499,35.205256,119.8,829.842,120.0,45.0,-420.8545794977249,208.49071653282232,orb,features/frame_002937_orb.npz,extracted
4cf8d389-690a-422e-9621-e1b8f17f3615,2967,99.0,frames/frame_002967.jpg,2968,32.104499,35.205257,119.8,829.842,120.0,45.0,-420.7603864401096,208.49071653282232,orb,features/frame_002967_orb.npz,extracted
4cf8d389-690a-422e-9621-e1b8f17f3615,2997,100.0,frames/frame_002997.jpg,2998,32.104499,35.205257,119.8,829.842,120.0,45.0,-420.7603864401096,208.49071653282232,orb,features/frame_002997_orb.npz,extracted
4cf8d389-690a-422e-9621-e1b8f17f3615,3027,101.0,frames/frame_003027.jpg,3027,32.1045,35.205257,119.8,829.842,120.0,45.0,-420.7603864401096,208.60191158214928,orb,features/frame_003027_orb.npz,extracted
4cf8d389-690a-422e-9621-e1b8f17f3615,3057,102.0,frames/frame_003057.jpg,3057,32.1045,35.205257,119.8,829.842,120.0,45.0,-420.7603864401096,208.60191158214928,orb,features/frame_003057_orb.npz,extracted
4cf8d389-690a-422e-9621-e1b8f17f3615,3087,103.0,frames/frame_003087.jpg,3087,32.104501,35.205257,119.8,829.842,120.0,45.0,-420.7603864401096,208.71310663068613,orb,features/frame_003087_orb.npz,extracted
4cf8d389-690a-422e-9621-e1b8f17f3615,3117,104.0,frames/frame_003117.jpg,3117,32.104501,35.205256,119.8,829.842,120.0,45.0,-420.8545794977249,208.71310663068613,orb,features/frame_003117_orb.npz,extracted
4cf8d389-690a-422e-9621-e1b8f17f3615,3147,105.0,frames/frame_003147.jpg,3147,32.1045,35.205257,119.8,829.842,120.0,45.0,-420.7603864401096,208.60191158214928,orb,features/frame_003147_orb.npz,extracted
4cf8d389-690a-422e-9621-e1b8f17f3615,3177,106.0,frames/frame_003177.jpg,3177,32.104502,35.205248,119.8,829.842,120.0,45.0,-421.6081239553011,208.824301679223,orb,features/frame_003177_orb.npz,extracted
4cf8d389-690a-422e-9621-e1b8f17f3615,3207,107.0,frames/frame_003207.jpg,3207,32.104513,35.20521,119.8,829.842,120.0,45.0,-425.1874601279512,210.04744721628887,orb,features/frame_003207_orb.npz,extracted
4cf8d389-690a-422e-9621-e1b8f17f3615,3237,108.0,frames/frame_003237.jpg,3237,32.104533,35.205148,119.8,829.842,120.0,45.0,-431.02742967332995,212.27134819334694,orb,features/frame_003237_orb.npz,extracted
4cf8d389-690a-422e-9621-e1b8f17f3615,3267,109.0,frames/frame_003267.jpg,3267,32.104561,35.205068,119.7,829.742,120.0,45.0,-438.5628742484222,215.38480955948998,orb,features/frame_003267_orb.npz,extracted
4cf8d389-690a-422e-9621-e1b8f17f3615,3297,110.0,frames/frame_003297.jpg,3297,32.104593,35.204977,119.8,829.842,120.0,45.0,-447.13444245192886,218.94305112215073,orb,features/frame_003297_orb.npz,extracted
4cf8d389-690a-422e-9621-e1b8f17f3615,3327,111.0,frames/frame_003327.jpg,3327,32.104627,35.204879,119.8,829.842,120.0,45.0,-456.3653620560657,222.7236827818852,orb,features/frame_003327_orb.npz,extracted
4cf8d389-690a-422e-9621-e1b8f17f3615,3357,112.0,frames/frame_003357.jpg,3357,32.104665,35.204776,119.8,829.842,120.0,45.0,-466.0672469456019,226.9490946365573,orb,features/frame_003357_orb.npz,extracted
4cf8d389-690a-422e-9621-e1b8f17f3615,3387,113.0,frames/frame_003387.jpg,3387,32.104701,35.204673,119.8,829.842,120.0,45.0,-475.76913183580746,230.9521163941556,orb,features/frame_003387_orb.npz,extracted
4cf8d389-690a-422e-9621-e1b8f17f3615,3417,114.0,frames/frame_003417.jpg,3417,32.104738,35.204568,119.8,829.842,120.0,45.0,-485.65940283990506,235.06633320029079,orb,features/frame_003417_orb.npz,extracted
4cf8d389-690a-422e-9621-e1b8f17f3615,3447,115.0,frames/frame_003447.jpg,3447,32.104777,35.20446,119.8,829.842,120.0,45.0,-495.8322530161793,239.40294010428977,orb,features/frame_003447_orb.npz,extracted
4cf8d389-690a-422e-9621-e1b8f17f3615,3477,116.0,frames/frame_003477.jpg,3477,32.104816,35.204347,119.8,829.842,120.0,45.0,-506.47606847785306,243.7395470082888,orb,features/frame_003477_orb.npz,extracted
4cf8d389-690a-422e-9621-e1b8f17f3615,3506,117.0,frames/frame_003506.jpg,3507,32.104857,35.20423,119.8,829.842,120.0,45.0,-517.4966561679802,248.2985440101516,orb,features/frame_003506_orb.npz,extracted
4cf8d389-690a-422e-9621-e1b8f17f3615,3536,118.0,frames/frame_003536.jpg,3537,32.104897,35.204114,119.8,829.842,120.0,45.0,-528.4230508018306,252.7463459626875,orb,features/frame_003536_orb.npz,extracted
4cf8d389-690a-422e-9621-e1b8f17f3615,3566,119.0,frames/frame_003566.jpg,3567,32.104938,35.203998,119.8,829.842,120.0,45.0,-539.3494454350118,257.3053429637602,orb,features/frame_003566_orb.npz,extracted
4cf8d389-690a-422e-9621-e1b8f17f3615,3596,120.0,frames/frame_003596.jpg,3597,32.104979,35.203882,119.8,829.842,120.0,45.0,-550.275840068193,261.86433996562306,orb,features/frame_003596_orb.npz,extracted
4cf8d389-690a-422e-9621-e1b8f17f3615,3626,121.0,frames/frame_003626.jpg,3627,32.10502,35.203764,119.8,829.842,120.0,45.0,-561.3906208159354,266.4233369674859,orb,features/frame_003626_orb.npz,extracted
4cf8d389-690a-422e-9621-e1b8f17f3615,3656,122.0,frames/frame_003656.jpg,3657,32.10506,35.203647,119.8,829.842,120.0,45.0,-572.411208506732,270.87113892002174,orb,features/frame_003656_orb.npz,extracted
4cf8d389-690a-422e-9621-e1b8f17f3615,3686,123.0,frames/frame_003686.jpg,3687,32.105102,35.203531,119.8,829.842,120.0,45.0,-583.3376031399132,275.5413309704214,orb,features/frame_003686_orb.npz,extracted
4cf8d389-690a-422e-9621-e1b8f17f3615,3716,124.0,frames/frame_003716.jpg,3717,32.10515,35.203424,119.9,829.942,120.0,45.0,-593.4162602585722,280.87869331362253,orb,features/frame_003716_orb.npz,extracted
4cf8d389-690a-422e-9621-e1b8f17f3615,3746,125.0,frames/frame_003746.jpg,3747,32.10521,35.203334,119.9,829.942,120.0,45.0,-601.8936354051326,287.5503962424263,orb,features/frame_003746_orb.npz,extracted
4cf8d389-690a-422e-9621-e1b8f17f3615,3776,126.0,frames/frame_003776.jpg,3777,32.105281,35.20328,119.9,829.942,120.0,45.0,-606.9800604929352,295.445244708296,orb,features/frame_003776_orb.npz,extracted
4cf8d389-690a-422e-9621-e1b8f17f3615,3806,127.0,frames/frame_003806.jpg,3807,32.10535,35.203277,119.8,829.842,120.0,45.0,-607.2626396644426,303.11770307709196,orb,features/frame_003806_orb.npz,extracted
4cf8d389-690a-422e-9621-e1b8f17f3615,3836,128.0,frames/frame_003836.jpg,3837,32.105399,35.203312,119.8,829.842,120.0,45.0,-603.9658826632999,308.5662604688299,orb,features/frame_003836_orb.npz,extracted
4cf8d389-690a-422e-9621-e1b8f17f3615,3866,129.0,frames/frame_003866.jpg,3867,32.10543,35.203367,119.8,829.842,120.0,45.0,-598.7852645178821,312.0133069821637,orb,features/frame_003866_orb.npz,extracted
4cf8d389-690a-422e-9621-e1b8f17f3615,3896,130.0,frames/frame_003896.jpg,3897,32.105471,35.203437,119.8,829.842,120.0,45.0,-592.1917505149272,316.5723039840265,orb,features/frame_003896_orb.npz,extracted
4cf8d389-690a-422e-9621-e1b8f17f3615,3926,131.0,frames/frame_003926.jpg,3927,32.105516,35.203519,119.8,829.842,120.0,45.0,-584.4679198259428,321.5760811808269,orb,features/frame_003926_orb.npz,extracted
4cf8d389-690a-422e-9621-e1b8f17f3615,3956,132.0,frames/frame_003956.jpg,3957,32.105566,35.20361,119.9,829.942,120.0,45.0,-575.8963516224361,327.1358336218918,orb,features/frame_003956_orb.npz,extracted
4cf8d389-690a-422e-9621-e1b8f17f3615,3986,133.0,frames/frame_003986.jpg,3987,32.105619,35.203708,119.9,829.942,120.0,45.0,-566.6654320182994,333.0291712085672,orb,features/frame_003986_orb.npz,extracted
4cf8d389-690a-422e-9621-e1b8f17f3615,4016,134.0,frames/frame_004016.jpg,4017,32.105664,35.20381,119.9,829.942,120.0,45.0,-557.0577401857092,338.0329484053677,orb,features/frame_004016_orb.npz,extracted
4cf8d389-690a-422e-9621-e1b8f17f3615,4046,135.0,frames/frame_004046.jpg,4046,32.105698,35.203916,119.8,829.842,120.0,45.0,-547.0732761239963,341.81358006510214,orb,features/frame_004046_orb.npz,extracted
4cf8d389-690a-422e-9621-e1b8f17f3615,4076,136.0,frames/frame_004076.jpg,4076,32.105732,35.204026,119.8,829.842,120.0,45.0,-536.71203983383,345.59421172562674,orb,features/frame_004076_orb.npz,extracted
4cf8d389-690a-422e-9621-e1b8f17f3615,4106,137.0,frames/frame_004106.jpg,4106,32.105767,35.204139,119.9,829.942,120.0,45.0,-526.0682243721562,349.4860384338981,orb,features/frame_004106_orb.npz,extracted
4cf8d389-690a-422e-9621-e1b8f17f3615,4136,138.0,frames/frame_004136.jpg,4136,32.105803,35.204255,119.9,829.942,120.0,45.0,-515.1418297383058,353.48906019149643,orb,features/frame_004136_orb.npz,extracted
4cf8d389-690a-422e-9621-e1b8f17f3615,4166,139.0,frames/frame_004166.jpg,4166,32.105839,35.204372,119.9,829.942,120.0,45.0,-504.12124204817854,357.4920819490947,orb,features/frame_004166_orb.npz,extracted
4cf8d389-690a-422e-9621-e1b8f17f3615,4196,140.0,frames/frame_004196.jpg,4196,32.105876,35.20449,119.9,829.942,120.0,45.0,-493.006461300436,361.6062987552299,orb,features/frame_004196_orb.npz,extracted
4cf8d389-690a-422e-9621-e1b8f17f3615,4226,141.0,frames/frame_004226.jpg,4226,32.105912,35.204609,119.9,829.942,120.0,45.0,-481.79748749574736,365.60932051203815,orb,features/frame_004226_orb.npz,extracted
4cf8d389-690a-422e-9621-e1b8f17f3615,4256,142.0,frames/frame_004256.jpg,4256,32.105946,35.204727,119.9,829.942,120.0,45.0,-470.6827067480049,369.38995217256274,orb,features/frame_004256_orb.npz,extracted
4cf8d389-690a-422e-9621-e1b8f17f3615,4286,143.0,frames/frame_004286.jpg,4286,32.105969,35.204844,119.9,829.942,120.0,45.0,-459.66211905720843,371.94743829523134,orb,features/frame_004286_orb.npz,extracted
4cf8d389-690a-422e-9621-e1b8f17f3615,4316,144.0,frames/frame_004316.jpg,4316,32.105983,35.204961,119.9,829.942,120.0,45.0,-448.64153136708126,373.5041689786979,orb,features/frame_004316_orb.npz,extracted
4cf8d389-690a-422e-9621-e1b8f17f3615,4346,145.0,frames/frame_004346.jpg,4346,32.105996,35.20508,119.9,829.942,120.0,45.0,-437.4325575617234,374.94970461283754,orb,features/frame_004346_orb.npz,extracted
4cf8d389-690a-422e-9621-e1b8f17f3615,4376,146.0,frames/frame_004376.jpg,4376,32.106007,35.205202,119.9,829.942,120.0,45.0,-425.9410045855274,376.1728501499034,orb,features/frame_004376_orb.npz,extracted
4cf8d389-690a-422e-9621-e1b8f17f3615,4406,147.0,frames/frame_004406.jpg,4406,32.106017,35.205326,119.9,829.942,120.0,45.0,-414.2610654947701,377.28480063843244,orb,features/frame_004406_orb.npz,extracted
4cf8d389-690a-422e-9621-e1b8f17f3615,4436,148.0,frames/frame_004436.jpg,4436,32.106028,35.205451,119.9,829.942,120.0,45.0,-402.48693334706667,378.5079461754983,orb,features/frame_004436_orb.npz,extracted
4cf8d389-690a-422e-9621-e1b8f17f3615,4466,149.0,frames/frame_004466.jpg,4466,32.106039,35.205578,119.9,829.942,120.0,45.0,-390.5244150841327,379.7310917125642,orb,features/frame_004466_orb.npz,extracted
4cf8d389-690a-422e-9621-e1b8f17f3615,4496,150.0,frames/frame_004496.jpg,4496,32.10605,35.205705,119.9,829.942,120.0,45.0,-378.561896821868,380.95423724963007,orb,features/frame_004496_orb.npz,extracted
4cf8d389-690a-422e-9621-e1b8f17f3615,4525,151.0,frames/frame_004525.jpg,4526,32.10606,35.205832,119.9,829.942,120.0,45.0,-366.5993785596033,382.066187737369,orb,features/frame_004525_orb.npz,extracted
4cf8d389-690a-422e-9621-e1b8f17f3615,4555,152.0,frames/frame_004555.jpg,4556,32.106069,35.205959,119.9,829.942,120.0,45.0,-354.63686029733856,383.06694317657104,orb,features/frame_004555_orb.npz,extracted
4cf8d389-690a-422e-9621-e1b8f17f3615,4585,153.0,frames/frame_004585.jpg,4586,32.10608,35.206085,119.9,829.942,120.0,45.0,-342.7685350920199,384.2900887136369,orb,features/frame_004585_orb.npz,extracted
4cf8d389-690a-422e-9621-e1b8f17f3615,4615,154.0,frames/frame_004615.jpg,4616,32.10609,35.206212,119.9,829.942,120.0,45.0,-330.80601682975515,385.4020392021659,orb,features/frame_004615_orb.npz,extracted
4cf8d389-690a-422e-9621-e1b8f17f3615,4645,155.0,frames/frame_004645.jpg,4646,32.106099,35.206338,119.9,829.942,120.0,45.0,-318.93769162443647,386.40279464136796,orb,features/frame_004645_orb.npz,extracted
4cf8d389-690a-422e-9621-e1b8f17f3615,4675,156.0,frames/frame_004675.jpg,4676,32.106099,35.206461,119.9,829.942,120.0,45.0,-307.3519455912945,386.40279464136796,orb,features/frame_004675_orb.npz,extracted
4cf8d389-690a-422e-9621-e1b8f17f3615,4705,157.0,frames/frame_004705.jpg,4706,32.106091,35.206582,119.9,829.942,120.0,45.0,-295.9545856720446,385.5132342507028,orb,features/frame_004705_orb.npz,extracted
4cf8d389-690a-422e-9621-e1b8f17f3615,4735,158.0,frames/frame_004735.jpg,4736,32.106076,35.206703,119.9,829.942,120.0,45.0,-284.55722575279464,383.84530851869937,orb,features/frame_004735_orb.npz,extracted
4cf8d389-690a-422e-9621-e1b8f17f3615,4765,159.0,frames/frame_004765.jpg,4766,32.10606,35.206824,119.9,829.942,120.0,45.0,-273.1598658335447,382.066187737369,orb,features/frame_004765_orb.npz,extracted
4cf8d389-690a-422e-9621-e1b8f17f3615,4795,160.0,frames/frame_004795.jpg,4796,32.106022,35.206922,119.9,829.942,120.0,45.0,-263.928946229408,377.84077588269696,orb,features/frame_004795_orb.npz,extracted
4cf8d389-690a-422e-9621-e1b8f17f3615,4825,161.0,frames/frame_004825.jpg,4826,32.105976,35.207014,119.9,829.942,120.0,45.0,-255.263184968286,372.7258036365696,orb,features/frame_004825_orb.npz,extracted
4cf8d389-690a-422e-9621-e1b8f17f3615,4855,162.0,frames/frame_004855.jpg,4856,32.105917,35.20708,119.9,829.942,120.0,45.0,-249.04644319445387,366.16529575630267,orb,features/frame_004855_orb.npz,extracted
4cf8d389-690a-422e-9621-e1b8f17f3615,4885,163.0,frames/frame_004885.jpg,4886,32.105853,35.207113,119.9,829.942,120.0,45.0,-245.9380723072032,359.0488126325613,orb,features/frame_004885_orb.npz,extracted
4cf8d389-690a-422e-9621-e1b8f17f3615,4915,164.0,frames/frame_004915.jpg,4916,32.10579,35.207124,119.9,829.942,120.0,45.0,-244.90194867811965,352.04352455656675,orb,features/frame_004915_orb.npz,extracted
4cf8d389-690a-422e-9621-e1b8f17f3615,4945,165.0,frames/frame_004945.jpg,4946,32.105711,35.207133,119.9,829.942,120.0,45.0,-244.05421116359742,343.2591157000318,orb,features/frame_004945_orb.npz,extracted
4cf8d389-690a-422e-9621-e1b8f17f3615,4975,166.0,frames/frame_004975.jpg,4976,32.105623,35.207142,119.9,829.942,120.0,45.0,-243.2064736490752,333.4739514042949,orb,features/frame_004975_orb.npz,extracted
4cf8d389-690a-422e-9621-e1b8f17f3615,5005,167.0,frames/frame_005005.jpg,5006,32.105528,35.20715,119.9,829.942,120.0,45.0,-242.45292919149907,322.91042176642964,orb,features/frame_005005_orb.npz,extracted
4cf8d389-690a-422e-9621-e1b8f17f3615,5035,168.0,frames/frame_005035.jpg,5035,32.105429,35.207158,119.9,829.942,120.0,45.0,-241.6993847339229,311.9021119336268,orb,features/frame_005035_orb.npz,extracted
4cf8d389-690a-422e-9621-e1b8f17f3615,5065,169.0,frames/frame_005065.jpg,5065,32.105326,35.207167,119.9,829.942,120.0,45.0,-240.85164721940072,300.4490219050964,orb,features/frame_005065_orb.npz,extracted
4cf8d389-690a-422e-9621-e1b8f17f3615,5095,170.0,frames/frame_005095.jpg,5095,32.105221,35.207174,119.9,829.942,120.0,45.0,-240.1922958187706,288.7735417794922,orb,features/frame_005095_orb.npz,extracted
4cf8d389-690a-422e-9621-e1b8f17f3615,5125,171.0,frames/frame_005125.jpg,5125,32.105115,35.207182,119.8,829.842,120.0,45.0,-239.43875136119442,276.98686660456104,orb,features/frame_005125_orb.npz,extracted
4cf8d389-690a-422e-9621-e1b8f17f3615,5155,172.0,frames/frame_005155.jpg,5155,32.105007,35.207189,119.8,829.842,120.0,45.0,-238.7793999612336,264.97780133255617,orb,features/frame_005155_orb.npz,extracted
4cf8d389-690a-422e-9621-e1b8f17f3615,5185,173.0,frames/frame_005185.jpg,5185,32.104899,35.207195,119.9,829.942,120.0,45.0,-238.21424161821875,252.96873606055132,orb,features/frame_005185_orb.npz,extracted
4cf8d389-690a-422e-9621-e1b8f17f3615,5215,174.0,frames/frame_005215.jpg,5215,32.104791,35.207201,119.9,829.942,120.0,45.0,-237.64908327520396,240.95967078775638,orb,features/frame_005215_orb.npz,extracted
4cf8d389-690a-422e-9621-e1b8f17f3615,5245,175.0,frames/frame_005245.jpg,5245,32.104683,35.207207,119.9,829.942,120.0,45.0,-237.08392493218918,228.9506055157515,orb,features/frame_005245_orb.npz,extracted
4cf8d389-690a-422e-9621-e1b8f17f3615,5275,176.0,frames/frame_005275.jpg,5275,32.104575,35.207214,119.9,829.942,120.0,45.0,-236.42457353155902,216.94154024295653,orb,features/frame_005275_orb.npz,extracted
4cf8d389-690a-422e-9621-e1b8f17f3615,5305,177.0,frames/frame_005305.jpg,5305,32.104475,35.207234,119.9,829.942,120.0,45.0,-234.54071238795328,205.82203536161686,orb,features/frame_005305_orb.npz,extracted
4cf8d389-690a-422e-9621-e1b8f17f3615,5335,178.0,frames/frame_005335.jpg,5335,32.104396,35.207278,119.9,829.942,120.0,45.0,-230.39621787161903,197.03762650508196,orb,features/frame_005335_orb.npz,extracted
4cf8d389-690a-422e-9621-e1b8f17f3615,5365,179.0,frames/frame_005365.jpg,5365,32.104338,35.207338,119.9,829.942,120.0,45.0,-224.74463444080172,190.5883136733519,orb,features/frame_005365_orb.npz,extracted
4cf8d389-690a-422e-9621-e1b8f17f3615,5395,180.0,frames/frame_005395.jpg,5395,32.104286,35.207408,119.9,829.942,120.0,45.0,-218.1511204378469,184.80617113521328,orb,features/frame_005395_orb.npz,extracted
4cf8d389-690a-422e-9621-e1b8f17f3615,5425,181.0,frames/frame_005425.jpg,5425,32.104227,35.207486,119.9,829.942,120.0,45.0,-210.80406197731588,178.24566325494632,orb,features/frame_005425_orb.npz,extracted
4cf8d389-690a-422e-9621-e1b8f17f3615,5455,182.0,frames/frame_005455.jpg,5455,32.104164,35.207572,119.9,829.942,120.0,45.0,-202.70345905987807,171.24037517895175,orb,features/frame_005455_orb.npz,extracted
4cf8d389-690a-422e-9621-e1b8f17f3615,5485,183.0,frames/frame_005485.jpg,5485,32.104098,35.207661,119.9,829.942,120.0,45.0,-194.3202769702635,163.90150195734657,orb,features/frame_005485_orb.npz,extracted
4cf8d389-690a-422e-9621-e1b8f17f3615,5514,184.0,frames/frame_005514.jpg,5515,32.104031,35.207753,119.9,829.942,120.0,45.0,-185.6545157098108,156.45143368641445,orb,features/frame_005514_orb.npz,extracted
4cf8d389-690a-422e-9621-e1b8f17f3615,5544,185.0,frames/frame_005544.jpg,5545,32.103963,35.207848,119.9,829.942,120.0,45.0,-176.70617527718144,148.89017036694545,orb,features/frame_005544_orb.npz,extracted
4cf8d389-690a-422e-9621-e1b8f17f3615,5574,186.0,frames/frame_005574.jpg,5575,32.103895,35.207944,119.9,829.942,120.0,45.0,-167.66364178760608,141.32890704747646,orb,features/frame_005574_orb.npz,extracted
4cf8d389-690a-422e-9621-e1b8f17f3615,5604,187.0,frames/frame_005604.jpg,5605,32.103833,35.208043,119.8,829.842,120.0,45.0,-158.338529125854,134.43481402080883,orb,features/frame_005604_orb.npz,extracted
4cf8d389-690a-422e-9621-e1b8f17f3615,5634,188.0,frames/frame_005634.jpg,5635,32.103771,35.208144,119.8,829.842,120.0,45.0,-148.82503035087913,127.5407209941412,orb,features/frame_005634_orb.npz,extracted
4cf8d389-690a-422e-9621-e1b8f17f3615,5664,189.0,frames/frame_005664.jpg,5665,32.103708,35.208245,119.8,829.842,120.0,45.0,-139.31153157523497,120.53543291814661,orb,features/frame_005664_orb.npz,extracted
4cf8d389-690a-422e-9621-e1b8f17f3615,5694,190.0,frames/frame_005694.jpg,5695,32.103645,35.208347,119.8,829.842,120.0,45.0,-129.7038397419755,113.53014484294212,orb,features/frame_005694_orb.npz,extracted
4cf8d389-690a-422e-9621-e1b8f17f3615,5724,191.0,frames/frame_005724.jpg,5725,32.103582,35.208449,119.8,829.842,120.0,45.0,-120.0961479093853,106.52485676773763,orb,features/frame_005724_orb.npz,extracted
4cf8d389-690a-422e-9621-e1b8f17f3615,5754,192.0,frames/frame_005754.jpg,5755,32.103518,35.208552,119.8,829.842,120.0,45.0,-110.39426301984905,99.40837364320619,orb,features/frame_005754_orb.npz,extracted
4cf8d389-690a-422e-9621-e1b8f17f3615,5784,193.0,frames/frame_005784.jpg,5785,32.103455,35.208654,119.8,829.842,120.0,45.0,-100.78657118658957,92.40308556721159,orb,features/frame_005784_orb.npz,extracted
4cf8d389-690a-422e-9621-e1b8f17f3615,5814,194.0,frames/frame_005814.jpg,5815,32.103391,35.208757,119.8,829.842,120.0,45.0,-91.08468629705334,85.28660244347023,orb,features/frame_005814_orb.npz,extracted
4cf8d389-690a-422e-9621-e1b8f17f3615,5844,195.0,frames/frame_005844.jpg,5845,32.103328,35.20886,119.8,829.842,120.0,45.0,-81.38280140684782,78.28131436747566,orb,features/frame_005844_orb.npz,extracted
4cf8d389-690a-422e-9621-e1b8f17f3615,5874,196.0,frames/frame_005874.jpg,5875,32.103265,35.208963,119.8,829.842,120.0,45.0,-71.68091651731159,71.27602629227117,orb,features/frame_005874_orb.npz,extracted
4cf8d389-690a-422e-9621-e1b8f17f3615,5904,197.0,frames/frame_005904.jpg,5905,32.103225,35.209066,119.8,829.842,120.0,45.0,-61.97903162710606,66.82822433973529,orb,features/frame_005904_orb.npz,extracted
4cf8d389-690a-422e-9621-e1b8f17f3615,5934,198.0,frames/frame_005934.jpg,5935,32.103219,35.20916,119.8,829.842,120.0,45.0,-53.124884252092045,66.16105404693393,orb,features/frame_005934_orb.npz,extracted
4cf8d389-690a-422e-9621-e1b8f17f3615,5964,199.0,frames/frame_005964.jpg,5965,32.103237,35.209235,119.9,829.942,120.0,45.0,-46.06040496306845,68.16256492533803,orb,features/frame_005964_orb.npz,extracted
4cf8d389-690a-422e-9621-e1b8f17f3615,5994,200.0,frames/frame_005994.jpg,5995,32.103265,35.209315,119.9,829.942,120.0,45.0,-38.52496038864538,71.27602629227117,orb,features/frame_005994_orb.npz,extracted
4cf8d389-690a-422e-9621-e1b8f17f3615,6024,201.0,frames/frame_006024.jpg,6024,32.103299,35.209406,119.9,829.942,120.0,45.0,-29.95339218446947,75.05665795200566,orb,features/frame_006024_orb.npz,extracted
4cf8d389-690a-422e-9621-e1b8f17f3615,6054,202.0,frames/frame_006054.jpg,6054,32.103338,35.209506,119.8,829.842,120.0,45.0,-20.534086466440634,79.39326485600466,orb,features/frame_006054_orb.npz,extracted
4cf8d389-690a-422e-9621-e1b8f17f3615,6084,203.0,frames/frame_006084.jpg,6084,32.103379,35.209611,119.8,829.842,120.0,45.0,-10.643815461673759,83.9522618570774,orb,features/frame_006084_orb.npz,extracted
4cf8d389-690a-422e-9621-e1b8f17f3615,6114,204.0,frames/frame_006114.jpg,6114,32.103422,35.209718,119.8,829.842,120.0,45.0,-0.5651583430148018,88.73364895680405,orb,features/frame_006114_orb.npz,extracted
4cf8d389-690a-422e-9621-e1b8f17f3615,6144,205.0,frames/frame_006144.jpg,6144,32.103465,35.209828,119.9,829.942,120.0,45.0,9.796077947151556,93.51503605574061,orb,features/frame_006144_orb.npz,extracted
4cf8d389-690a-422e-9621-e1b8f17f3615,6174,206.0,frames/frame_006174.jpg,6174,32.103509,35.20994,119.8,829.842,120.0,45.0,20.345700351879277,98.40761820400411,orb,features/frame_006174_orb.npz,extracted
4cf8d389-690a-422e-9621-e1b8f17f3615,6204,207.0,frames/frame_006204.jpg,6204,32.103554,35.210052,119.8,829.842,120.0,45.0,30.895322755937713,103.4113954008045,orb,features/frame_006204_orb.npz,extracted
4cf8d389-690a-422e-9621-e1b8f17f3615,6234,208.0,frames/frame_006234.jpg,6234,32.1036,35.210166,119.8,829.842,120.0,45.0,41.633331275226794,108.52636764614174,orb,features/frame_006234_orb.npz,extracted
4cf8d389-690a-422e-9621-e1b8f17f3615,6264,209.0,frames/frame_006264.jpg,6264,32.103646,35.21028,119.9,829.942,120.0,45.0,52.371339793846595,113.64133989147899,orb,features/frame_006264_orb.npz,extracted
4cf8d389-690a-422e-9621-e1b8f17f3615,6294,210.0,frames/frame_006294.jpg,6294,32.103692,35.210394,119.9,829.942,120.0,45.0,63.10934831313568,118.7563121376063,orb,features/frame_006294_orb.npz,extracted
4cf8d389-690a-422e-9621-e1b8f17f3615,6324,211.0,frames/frame_006324.jpg,6324,32.103738,35.210508,119.9,829.942,120.0,45.0,73.84735683175548,123.87128438294356,orb,features/frame_006324_orb.npz,extracted
4cf8d389-690a-422e-9621-e1b8f17f3615,6354,212.0,frames/frame_006354.jpg,6354,32.103785,35.210622,119.9,829.942,120.0,45.0,84.58536535104456,129.09745167760775,orb,features/frame_006354_orb.npz,extracted
4cf8d389-690a-422e-9621-e1b8f17f3615,6384,213.0,frames/frame_006384.jpg,6384,32.103831,35.210737,119.9,829.942,120.0,45.0,95.41756692727967,134.212423922945,orb,features/frame_006384_orb.npz,extracted
4cf8d389-690a-422e-9621-e1b8f17f3615,6414,214.0,frames/frame_006414.jpg,6414,32.103883,35.210843,119.9,829.942,120.0,45.0,105.40203098832332,139.99456646187372,orb,features/frame_006414_orb.npz,extracted
4cf8d389-690a-422e-9621-e1b8f17f3615,6444,215.0,frames/frame_006444.jpg,6444,32.103945,35.21092,120.1,830.142,120.0,45.0,112.65489639190825,146.88865948854135,orb,features/frame_006444_orb.npz,extracted
4cf8d389-690a-422e-9621-e1b8f17f3615,6474,216.0,frames/frame_006474.jpg,6474,32.104013,35.210986,120.2,830.242,120.0,45.0,118.87163816574036,154.44992280801034,orb,features/frame_006474_orb.npz,extracted
4cf8d389-690a-422e-9621-e1b8f17f3615,6503,217.0,frames/frame_006503.jpg,6504,32.104086,35.211055,120.2,830.242,120.0,45.0,125.37095911174916,162.56716137174382,orb,features/frame_006503_orb.npz,extracted
4cf8d389-690a-422e-9621-e1b8f17f3615,6533,218.0,frames/frame_006533.jpg,6534,32.104162,35.2111,120.3,830.342,120.0,45.0,129.60964668502945,171.017985081878,orb,features/frame_006533_orb.npz,extracted
4cf8d389-690a-422e-9621-e1b8f17f3615,6563,219.0,frames/frame_006563.jpg,6564,32.104236,35.211113,120.3,830.342,120.0,45.0,130.83415642800506,179.2464186941484,orb,features/frame_006563_orb.npz,extracted
4cf8d389-690a-422e-9621-e1b8f17f3615,6593,220.0,frames/frame_006593.jpg,6594,32.104314,35.21112,120.3,830.342,120.0,45.0,131.49350782863522,187.9196325021464,orb,features/frame_006593_orb.npz,extracted
4cf8d389-690a-422e-9621-e1b8f17f3615,6623,221.0,frames/frame_006623.jpg,6624,32.1044,35.211128,120.3,830.342,120.0,45.0,132.24705228621139,197.4824067000195,orb,features/frame_006623_orb.npz,extracted
4cf8d389-690a-422e-9621-e1b8f17f3615,6653,222.0,frames/frame_006653.jpg,6654,32.104494,35.211136,120.3,830.342,120.0,45.0,133.00059674378753,207.9347412893479,orb,features/frame_006653_orb.npz,extracted
4cf8d389-690a-422e-9621-e1b8f17f3615,6683,223.0,frames/frame_006683.jpg,6684,32.104592,35.21114,120.4,830.442,120.0,45.0,133.377368972241,218.83185607282377,orb,features/frame_006683_orb.npz,extracted
4cf8d389-690a-422e-9621-e1b8f17f3615,6713,224.0,frames/frame_006713.jpg,6714,32.104677,35.211117,120.4,830.442,120.0,45.0,131.21092865712782,228.28343522295012,orb,features/frame_006713_orb.npz,extracted
4cf8d389-690a-422e-9621-e1b8f17f3615,6743,225.0,frames/frame_006743.jpg,6744,32.104732,35.211067,120.4,830.442,120.0,45.0,126.50127579777876,234.3991629074894,orb,features/frame_006743_orb.npz,extracted
4cf8d389-690a-422e-9621-e1b8f17f3615,6773,226.0,frames/frame_006773.jpg,6774,32.104752,35.211005,120.4,830.442,120.0,45.0,120.6613062524001,236.62306388375734,orb,features/frame_006773_orb.npz,extracted
4cf8d389-690a-422e-9621-e1b8f17f3615,6803,227.0,frames/frame_006803.jpg,6804,32.104743,35.210949,120.3,830.342,120.0,45.0,115.38649505003625,235.62230844455527,orb,features/frame_006803_orb.npz,extracted
4cf8d389-690a-422e-9621-e1b8f17f3615,6833,228.0,frames/frame_006833.jpg,6834,32.104713,35.210909,120.3,830.342,120.0,45.0,111.61877276282469,232.28645697975836,orb,features/frame_006833_orb.npz,extracted
4cf8d389-690a-422e-9621-e1b8f17f3615,6863,229.0,frames/frame_006863.jpg,6864,32.104667,35.210878,120.2,830.242,120.0,45.0,108.69878799013536,227.1714847344211,orb,features/frame_006863_orb.npz,extracted
4cf8d389-690a-422e-9621-e1b8f17f3615,6893,230.0,frames/frame_006893.jpg,6894,32.10461,35.210834,120.2,830.242,120.0,45.0,104.55429347380111,220.83336695201797,orb,features/frame_006893_orb.npz,extracted
4cf8d389-690a-422e-9621-e1b8f17f3615,6923,231.0,frames/frame_006923.jpg,6924,32.104547,35.210776,120.3,830.342,120.0,45.0,99.09109615754517,213.82807887602343,orb,features/frame_006923_orb.npz,extracted
4cf8d389-690a-422e-9621-e1b8f17f3615,6953,232.0,frames/frame_006953.jpg,6954,32.104479,35.210708,120.3,830.342,120.0,45.0,92.68596826848243,206.2668155565544,orb,features/frame_006953_orb.npz,extracted
4cf8d389-690a-422e-9621-e1b8f17f3615,6983,233.0,frames/frame_006983.jpg,6984,32.104407,35.210636,120.3,830.342,120.0,45.0,85.90406815163553,198.26077204214786,orb,features/frame_006983_orb.npz,extracted
4cf8d389-690a-422e-9621-e1b8f17f3615,7013,234.0,frames/frame_007013.jpg,7014,32.104331,35.210561,120.3,830.342,120.0,45.0,78.83958886261193,189.80994833201365,orb,features/frame_007013_orb.npz,extracted
4cf8d389-690a-422e-9621-e1b8f17f3615,7043,235.0,frames/frame_007043.jpg,7043,32.10425,35.210495,120.4,830.442,120.0,45.0,72.62284708877982,180.80314937761494,orb,features/frame_007043_orb.npz,extracted
4cf8d389-690a-422e-9621-e1b8f17f3615,7073,236.0,frames/frame_007073.jpg,7073,32.104166,35.210443,120.4,830.442,120.0,45.0,67.7248081148694,171.46276527681556,orb,features/frame_007073_orb.npz,extracted
4cf8d389-690a-422e-9621-e1b8f17f3615,7103,237.0,frames/frame_007103.jpg,7103,32.104076,35.210401,120.3,830.342,120.0,45.0,63.76869971309652,161.45521088321482,orb,features/frame_007103_orb.npz,extracted
4cf8d389-690a-422e-9621-e1b8f17f3615,7133,238.0,frames/frame_007133.jpg,7133,32.103983,35.21036,120.3,830.342,120.0,45.0,59.90678436893894,151.11407134321337,orb,features/frame_007133_orb.npz,extracted
4cf8d389-690a-422e-9621-e1b8f17f3615,7163,239.0,frames/frame_007163.jpg,7163,32.103888,35.210317,120.3,830.342,120.0,45.0,55.85648291022,140.55054170534814,orb,features/frame_007163_orb.npz,extracted
4cf8d389-690a-422e-9621-e1b8f17f3615,7193,240.0,frames/frame_007193.jpg,7193,32.10379,35.210273,120.3,830.342,120.0,45.0,51.711988393885754,129.65342692108217,orb,features/frame_007193_orb.npz,extracted
4cf8d389-690a-422e-9621-e1b8f17f3615,7223,241.0,frames/frame_007223.jpg,7223,32.10369,35.210228,120.3,830.342,120.0,45.0,47.47330082060545,118.53392203974248,orb,features/frame_007223_orb.npz,extracted
4cf8d389-690a-422e-9621-e1b8f17f3615,7253,242.0,frames/frame_007253.jpg,7253,32.10359,35.210183,120.3,830.342,120.0,45.0,43.234613247325164,107.41441715761273,orb,features/frame_007253_orb.npz,extracted
4cf8d389-690a-422e-9621-e1b8f17f3615,7283,243.0,frames/frame_007283.jpg,7283,32.103489,35.210138,120.3,830.342,120.0,45.0,38.99592567404487,96.18371722773618,orb,features/frame_007283_orb.npz,extracted
4cf8d389-690a-422e-9621-e1b8f17f3615,7313,244.0,frames/frame_007313.jpg,7313,32.103388,35.210093,120.3,830.342,120.0,45.0,34.75723810076457,84.95301729706955,orb,features/frame_007313_orb.npz,extracted
4cf8d389-690a-422e-9621-e1b8f17f3615,7343,245.0,frames/frame_007343.jpg,7343,32.103289,35.210049,120.3,830.342,120.0,45.0,30.612743584430316,73.94470746347665,orb,features/frame_007343_orb.npz,extracted
4cf8d389-690a-422e-9621-e1b8f17f3615,7373,246.0,frames/frame_007373.jpg,7373,32.103187,35.210003,120.3,830.342,120.0,45.0,26.279862954203978,62.602812484273144,orb,features/frame_007373_orb.npz,extracted
4cf8d389-690a-422e-9621-e1b8f17f3615,7403,247.0,frames/frame_007403.jpg,7403,32.103086,35.209957,120.3,830.342,120.0,45.0,21.94698232397764,51.37211255360652,orb,features/frame_007403_orb.npz,extracted
4cf8d389-690a-422e-9621-e1b8f17f3615,7433,248.0,frames/frame_007433.jpg,7433,32.103009,35.209923,120.3,830.342,120.0,45.0,18.74441837978091,42.81009379493546,orb,features/frame_007433_orb.npz,extracted
4cf8d389-690a-422e-9621-e1b8f17f3615,7463,249.0,frames/frame_007463.jpg,7463,32.102991,35.209915,120.2,830.242,120.0,45.0,17.99087392220475,40.80858291653134,orb,features/frame_007463_orb.npz,extracted
4cf8d389-690a-422e-9621-e1b8f17f3615,7493,250.0,frames/frame_007493.jpg,7493,32.102988,35.209913,120.3,830.342,120.0,45.0,17.802487807643384,40.474997770130656,orb,features/frame_007493_orb.npz,extracted
4cf8d389-690a-422e-9621-e1b8f17f3615,7522,251.0,frames/frame_007522.jpg,7523,32.102987,35.209912,120.3,830.342,120.0,45.0,17.708294750697345,40.363802720803704,orb,features/frame_007522_orb.npz,extracted
